City_ID,City,Lat,Lng,Max Temp,Humidity,Cloudiness,Wind Speed,Country,Date
0,Carutapera,-1.195,-46.02,75.45,92,100,4.72,BR,2022-02-06 03:37:17
1,East London,-33.0153,27.9116,67.14,94,0,5.75,ZA,2022-02-06 03:42:06
2,Vaini,-21.2,-175.2,78.96,89,100,14.97,TO,2022-02-06 03:42:06
3,Rikitea,-23.1203,-134.9692,79.36,69,91,14.97,PF,2022-02-06 03:42:07
4,Labuan,5.2767,115.2417,88.16,62,20,8.05,MY,2022-02-06 03:42:07
5,Atherton,53.5237,-2.4935,49.55,89,100,5.01,GB,2022-02-06 03:42:08
6,Huarmey,-10.0681,-78.1522,70.48,84,84,8.12,PE,2022-02-06 03:39:03
7,San Quintin,30.4833,-115.95,56.34,46,0,4.59,MX,2022-02-06 03:42:08
8,Ixtapa,20.7,-105.2,72.63,73,20,4.61,MX,2022-02-06 03:42:09
9,Sycamore,41.9889,-88.6868,16.84,76,66,1.01,US,2022-02-06 03:42:09
10,Nikolskoye,59.7035,30.7861,27.72,97,100,4.72,RU,2022-02-06 03:39:19
11,Lompoc,34.6391,-120.4579,57.61,74,0,0.0,US,2022-02-06 03:42:09
12,Alyangula,-13.8483,136.4192,85.87,79,75,5.75,AU,2022-02-06 03:42:10
13,Port Elizabeth,-33.918,25.5701,68.09,88,20,14.97,ZA,2022-02-06 03:40:31
14,Saint-Philippe,-21.3585,55.7679,80.19,84,99,19.98,RE,2022-02-06 03:42:10
15,Matehuala,23.65,-100.65,49.19,61,22,10.4,MX,2022-02-06 03:42:11
16,Borogontsy,62.6683,131.1683,-24.93,92,98,2.19,RU,2022-02-06 03:42:11
17,Hermanus,-34.4187,19.2345,70.9,85,73,8.39,ZA,2022-02-06 03:42:12
18,Albany,42.6001,-73.9662,10.35,76,5,4.52,US,2022-02-06 03:39:28
19,Normandin,48.8333,-72.5321,-3.69,70,11,10.36,CA,2022-02-06 03:42:12
20,Mataura,-46.1927,168.8643,57.47,38,11,5.03,NZ,2022-02-06 03:42:13
21,Port Alfred,-33.5906,26.891,70.23,88,42,23.8,ZA,2022-02-06 03:42:13
22,Sola,-13.8833,167.55,84.87,84,100,3.44,VU,2022-02-06 03:42:13
23,Salalah,17.0151,54.0924,71.69,73,40,4.61,OM,2022-02-06 03:42:14
24,Tagusao,9.1924,117.8141,83.5,68,59,8.25,PH,2022-02-06 03:42:14
25,Mutoko,-17.397,32.2268,60.17,95,81,1.45,ZW,2022-02-06 03:42:15
26,Avarua,-21.2078,-159.775,82.45,74,40,14.97,CK,2022-02-06 03:41:27
27,Ushuaia,-54.8,-68.3,49.66,57,20,18.41,AR,2022-02-06 03:38:13
28,Hobart,-42.8794,147.3294,77.02,43,20,1.01,AU,2022-02-06 03:42:15
29,Butaritari,3.0707,172.7902,82.8,75,95,17.0,KI,2022-02-06 03:42:16
30,Atambua,-9.1061,124.8925,82.99,66,27,6.26,ID,2022-02-06 03:42:16
31,Hami,42.8,93.45,30.56,23,100,11.32,CN,2022-02-06 03:42:17
32,Marakkanam,12.2,79.95,79.95,65,85,9.17,IN,2022-02-06 03:42:17
33,Cape Town,-33.9258,18.4232,71.11,73,0,1.01,ZA,2022-02-06 03:42:18
34,Qaanaaq,77.484,-69.3632,-1.95,97,100,2.62,GL,2022-02-06 03:42:18
35,Severo-Kurilsk,50.6789,156.125,29.71,77,81,15.82,RU,2022-02-06 03:42:19
36,Torbay,47.6666,-52.7314,42.76,95,100,13.8,CA,2022-02-06 03:42:19
37,Cidreira,-30.1811,-50.2056,72.93,90,89,6.02,BR,2022-02-06 03:42:20
38,Punta Arenas,-53.15,-70.9167,53.71,58,40,8.05,CL,2022-02-06 03:38:10
39,Hilo,19.7297,-155.09,76.73,77,20,6.91,US,2022-02-06 03:39:00
40,Sabha,27.0377,14.4283,50.31,34,6,9.82,LY,2022-02-06 03:42:20
41,Sitka,57.0531,-135.33,42.69,81,100,24.16,US,2022-02-06 03:42:21
42,Avera,33.194,-82.5271,40.71,44,0,11.9,US,2022-02-06 03:42:21
43,Tura,25.5198,90.2201,60.84,63,0,2.8,IN,2022-02-06 03:42:22
44,Mokhsogollokh,61.4681,128.9203,-8.99,91,99,1.95,RU,2022-02-06 03:42:22
45,Finote Selam,10.7,37.2667,55.74,61,32,2.95,ET,2022-02-06 03:42:22
46,Maputo,-25.9653,32.5892,71.28,94,75,16.11,MZ,2022-02-06 03:42:23
47,Jutai,-5.1833,-68.9,70.5,94,87,2.39,BR,2022-02-06 03:43:23
48,Bredasdorp,-34.5322,20.0403,68.29,95,64,5.28,ZA,2022-02-06 03:43:24
49,Lebu,-37.6167,-73.65,57.72,85,0,15.73,CL,2022-02-06 03:43:24
50,Alice Springs,-23.7,133.8833,83.75,28,0,5.75,AU,2022-02-06 03:40:20
51,Sigli,5.3848,95.9609,83.77,67,93,6.49,ID,2022-02-06 03:43:25
52,Atuona,-9.8,-139.0333,78.22,80,42,21.88,PF,2022-02-06 03:43:25
53,Westport,41.1415,-73.3579,21.79,54,0,7.0,US,2022-02-06 03:42:56
54,Arraial Do Cabo,-22.9661,-42.0278,76.1,88,77,25.39,BR,2022-02-06 03:43:26
55,Cayenne,4.9333,-52.3333,80.1,86,75,4.0,GF,2022-02-06 03:43:26
56,Puerto Rico,-26.796,-55.024,68.31,99,66,0.45,AR,2022-02-06 03:41:29
57,Faanui,-16.4833,-151.75,80.31,76,20,18.07,PF,2022-02-06 03:43:27
58,Havelock,34.8791,-76.9013,37.92,76,3,4.0,US,2022-02-06 03:43:27
59,Ola,59.5833,151.2833,14.14,73,26,9.57,RU,2022-02-06 03:43:28
60,Busselton,-33.65,115.3333,75.04,62,86,11.86,AU,2022-02-06 03:43:28
61,Sinnamary,5.3833,-52.95,76.69,89,100,8.57,GF,2022-02-06 03:43:28
62,Puerto Ayora,-0.7393,-90.3518,75.54,92,33,4.0,EC,2022-02-06 03:41:10
63,Rocha,-34.4833,-54.3333,63.82,86,82,8.59,UY,2022-02-06 03:43:29
64,Ayan,56.45,138.1667,-0.58,64,2,9.13,RU,2022-02-06 03:43:29
65,Kapaa,22.0752,-159.319,78.78,73,0,1.99,US,2022-02-06 03:43:30
66,Khatanga,71.9667,102.5,-21.26,98,99,6.67,RU,2022-02-06 03:43:30
67,Surt,31.2089,16.5887,59.23,38,77,7.83,LY,2022-02-06 03:43:31
68,Hambantota,6.1241,81.1185,80.94,74,20,10.36,LK,2022-02-06 03:43:32
69,Sao Gabriel Da Cachoeira,-0.1303,-67.0892,72.14,97,99,0.87,BR,2022-02-06 03:43:32
70,Inhambane,-23.865,35.3833,76.6,84,59,16.02,MZ,2022-02-06 03:43:32
71,Praya,14.9215,-23.5087,70.34,78,0,14.97,CV,2022-02-06 03:43:33
72,Barrow,71.2906,-156.7887,-20.18,69,0,10.36,US,2022-02-06 03:43:33
73,Esperance,-33.8667,121.9,96.64,33,11,9.64,AU,2022-02-06 03:43:34
74,Pacific Grove,36.6177,-121.9166,56.88,68,0,1.99,US,2022-02-06 03:41:56
75,Vardo,70.3705,31.1107,26.98,79,100,28.3,NO,2022-02-06 03:43:35
76,Broken Hill,-31.95,141.4333,80.31,24,75,16.11,AU,2022-02-06 03:43:35
77,Oksfjord,70.2396,22.3479,31.12,83,80,14.45,NO,2022-02-06 03:43:35
78,Koindu,8.4386,-10.3253,63.14,80,16,1.1,GN,2022-02-06 03:43:36
79,Chacabuco,-34.6417,-60.4739,58.8,90,4,7.27,AR,2022-02-06 03:41:58
80,Longyearbyen,78.2186,15.6401,10.24,72,20,20.71,SJ,2022-02-06 03:43:36
81,Saskylakh,71.9167,114.0833,-28.19,100,98,2.73,RU,2022-02-06 03:43:37
82,Hithadhoo,-0.6,73.0833,81.99,73,6,9.24,MV,2022-02-06 03:43:37
83,Naryan-Mar,67.6713,53.087,3.69,92,100,12.57,RU,2022-02-06 03:43:38
84,Keflavik,64.0049,-22.5624,31.91,80,75,19.57,IS,2022-02-06 03:43:38
85,Barrhead,55.7992,-4.3929,40.05,84,75,1.99,GB,2022-02-06 03:43:38
86,Samarai,-10.6167,150.6667,84.79,72,100,10.83,PG,2022-02-06 03:42:35
87,La Ceiba,15.7597,-86.7822,75.02,78,75,3.44,HN,2022-02-06 03:40:00
88,Lovington,32.944,-103.3485,34.65,57,0,3.0,US,2022-02-06 03:43:39
89,Gbarnga,6.9956,-9.4722,69.96,99,28,2.57,LR,2022-02-06 03:43:40
90,Sept-Iles,50.2001,-66.3821,-1.68,46,0,10.36,CA,2022-02-06 03:41:59
91,Mar Del Plata,-38.0023,-57.5575,61.88,75,100,3.0,AR,2022-02-06 03:44:40
92,Narsaq,60.9167,-46.05,1.62,70,100,5.91,GL,2022-02-06 03:44:41
93,Mount Gambier,-37.8333,140.7667,85.91,20,40,13.8,AU,2022-02-06 03:44:41
94,Usevya,-7.1,31.2333,63.32,93,99,1.92,TZ,2022-02-06 03:44:42
95,Santa Ana Huista,15.6833,-91.8167,65.86,91,97,1.43,GT,2022-02-06 03:44:42
96,Bud,39.447,-86.1758,18.86,90,9,6.64,US,2022-02-06 03:44:43
97,San Felipe,10.3399,-68.7425,71.29,93,89,3.74,VE,2022-02-06 03:44:43
98,Kodiak,57.79,-152.4072,38.71,87,100,12.66,US,2022-02-06 03:44:43
99,Flinders,-34.5833,150.8552,76.17,60,88,11.99,AU,2022-02-06 03:44:44
100,Baculin,7.4525,126.5842,83.55,70,38,9.37,PH,2022-02-06 03:44:44
101,Bathsheba,13.2167,-59.5167,77.61,73,40,11.5,BB,2022-02-06 03:44:45
102,Cabo San Lucas,22.8909,-109.9124,66.51,54,10,3.0,MX,2022-02-06 03:42:19
103,Pandan,14.0453,124.1694,81.93,68,49,16.06,PH,2022-02-06 03:41:28
104,Coquimbo,-29.9533,-71.3436,62.33,88,100,2.3,CL,2022-02-06 03:44:46
105,Mouzouras,35.5333,24.15,55.44,87,40,0.0,GR,2022-02-06 03:44:46
106,Hays,30.0502,-98.0336,39.65,66,0,1.01,US,2022-02-06 03:44:47
107,Mae Sai,20.4335,99.8762,70.92,92,100,3.2,TH,2022-02-06 03:44:47
108,Bluff,-46.6,168.3333,57.79,58,7,12.3,NZ,2022-02-06 03:41:14
109,Tiksi,71.6872,128.8694,-22.77,98,99,5.7,RU,2022-02-06 03:44:48
110,Kabare,-2.4683,28.8242,59.88,92,96,1.34,CD,2022-02-06 03:44:48
111,Hualmay,-11.0964,-77.6139,69.69,83,100,8.1,PE,2022-02-06 03:40:36
112,Tuktoyaktuk,69.4541,-133.0374,-31.0,75,0,9.22,CA,2022-02-06 03:44:49
113,Andenes,69.3143,16.1194,34.07,93,100,18.41,NO,2022-02-06 03:44:49
114,Collierville,35.042,-89.6645,28.42,92,6,3.42,US,2022-02-06 03:44:50
115,Kashi,39.4547,75.9797,23.23,86,100,6.71,CN,2022-02-06 03:44:50
116,Jamestown,42.097,-79.2353,13.71,51,0,5.75,US,2022-02-06 03:44:28
117,Kjollefjord,70.9457,27.3465,26.04,80,76,27.76,NO,2022-02-06 03:44:51
118,Afua,-0.1567,-50.3867,74.88,96,98,2.93,BR,2022-02-06 03:44:51
119,Geraldton,-28.7667,114.6,81.01,61,75,17.29,AU,2022-02-06 03:42:44
120,Sao Filipe,14.8961,-24.4956,72.45,73,0,7.45,CV,2022-02-06 03:40:17
121,Margineni,46.9,26.6333,30.16,3,11,4.18,RO,2022-02-06 03:44:52
122,Parrsboro,45.4001,-64.332,12.76,63,56,7.0,CA,2022-02-06 03:44:53
123,Dingle,10.9995,122.6711,83.3,66,99,19.15,PH,2022-02-06 03:44:53
124,Luwuk,-0.9516,122.7875,85.53,74,72,2.08,ID,2022-02-06 03:44:53
125,Eha Amufu,6.6592,7.7596,69.64,24,14,1.83,NG,2022-02-06 03:44:54
126,Sotouboua,8.5667,0.9833,77.04,22,0,1.79,TG,2022-02-06 03:44:54
127,Georgetown,5.4112,100.3354,85.93,76,20,1.99,MY,2022-02-06 03:44:55
128,Sompeta,18.9333,84.6,73.85,48,70,6.02,IN,2022-02-06 03:44:55
129,Salinopolis,-0.6136,-47.3561,78.17,86,100,8.72,BR,2022-02-06 03:44:56
130,Caravelas,-17.7125,-39.2481,74.55,92,13,4.12,BR,2022-02-06 03:44:56
131,Bihar,47.15,21.9167,28.51,86,14,9.22,RO,2022-02-06 03:44:57
132,Bethel,41.3712,-73.414,20.05,64,0,6.91,US,2022-02-06 03:44:11
133,Kazerun,29.6195,51.6541,45.19,58,0,2.95,IR,2022-02-06 03:44:57
134,San Patricio,28.017,-97.5169,44.83,64,0,5.84,US,2022-02-06 03:45:58
135,Luderitz,-26.6481,15.1594,66.11,82,87,4.99,NA,2022-02-06 03:45:58
136,Kawalu,-7.3817,108.2082,80.44,80,69,2.26,ID,2022-02-06 03:45:58
137,Atbasar,51.8,68.3333,4.05,79,75,10.33,KZ,2022-02-06 03:45:59
138,Yima,34.7381,111.8839,34.36,45,100,9.24,CN,2022-02-06 03:45:59
139,Isangel,-19.55,169.2667,87.91,84,75,13.8,VU,2022-02-06 03:46:00
140,La Palma,33.8464,-118.0467,64.49,43,0,0.0,US,2022-02-06 03:46:00
141,Pundaguitan,6.3711,126.1689,82.08,75,27,18.45,PH,2022-02-06 03:46:01
142,Northam,51.0333,-4.2167,51.03,95,100,33.53,GB,2022-02-06 03:46:01
143,Vila Franca Do Campo,37.7167,-25.4333,60.19,86,78,14.63,PT,2022-02-06 03:46:02
144,Newport,51.5877,-2.9984,50.86,91,100,31.72,GB,2022-02-06 03:41:07
145,Labuhan,-6.8844,112.2051,84.02,74,83,12.01,ID,2022-02-06 03:44:12
146,Bambous Virieux,-20.3428,57.7575,81.21,83,75,12.66,MU,2022-02-06 03:46:03
147,Carnarvon,-24.8667,113.6333,82.47,69,75,19.57,AU,2022-02-06 03:46:03
148,Vuktyl,63.8567,57.3094,-2.94,97,20,3.87,RU,2022-02-06 03:46:04
149,Znamenskoye,57.1281,73.8282,8.69,86,100,5.91,RU,2022-02-06 03:46:04
150,Umm Kaddadah,13.6017,26.6876,52.05,30,76,17.02,SD,2022-02-06 03:46:05
151,Kano,12.0001,8.5167,57.09,51,0,3.44,NG,2022-02-06 03:46:05
152,Camacha,33.0833,-16.3333,62.53,82,40,24.16,PT,2022-02-06 03:46:06
153,Laguna,38.421,-121.4238,56.08,70,0,0.0,US,2022-02-06 03:46:06
154,Svetlyy,54.675,20.1347,37.45,87,100,21.16,RU,2022-02-06 03:46:07
155,Berlevag,70.8578,29.0864,24.33,83,57,26.19,NO,2022-02-06 03:46:07
156,Aktau,43.65,51.2,34.38,69,100,20.58,KZ,2022-02-06 03:46:07
157,Rasshevatskaya,45.5748,41.035,24.31,96,99,8.95,RU,2022-02-06 03:46:08
158,Santa Rosa,14.3122,121.1114,87.12,63,95,18.68,PH,2022-02-06 03:42:49
159,Verkhniy Lomov,53.4678,43.5511,-2.96,100,100,3.94,RU,2022-02-06 03:46:09
160,Pitea,65.3172,21.4794,24.89,98,43,4.92,SE,2022-02-06 03:46:09
161,Propria,-10.2111,-36.8403,72.77,88,26,2.64,BR,2022-02-06 03:46:09
162,San Martin,-33.081,-68.4681,59.54,58,2,3.22,AR,2022-02-06 03:46:10
163,Saint-Francois,46.4154,3.9054,37.42,92,75,5.75,FR,2022-02-06 03:46:10
164,Yellowknife,62.456,-114.3525,-16.58,86,0,9.22,CA,2022-02-06 03:46:11
165,College,64.8569,-147.8028,9.81,82,100,4.61,US,2022-02-06 03:44:15
166,Marystown,47.1666,-55.1483,29.86,100,100,13.0,CA,2022-02-06 03:46:11
167,Duluth,46.7833,-92.1066,18.66,84,100,0.0,US,2022-02-06 03:45:44
168,Argostolion,38.1811,20.489,53.67,84,90,5.21,GR,2022-02-06 03:46:12
169,Cherskiy,68.75,161.3,-29.67,99,24,1.95,RU,2022-02-06 03:46:12
170,Lopukhiv,48.3653,23.9638,23.14,99,99,3.71,UA,2022-02-06 03:46:13
171,Beringovskiy,63.05,179.3167,-11.51,94,71,12.66,RU,2022-02-06 03:46:13
172,Hamilton,39.1834,-84.5333,18.45,89,0,1.01,US,2022-02-06 03:46:13
173,Tazovskiy,67.4667,78.7,-20.76,100,78,5.48,RU,2022-02-06 03:46:14
174,Burevestnik,56.144,43.7883,-5.91,100,100,3.0,RU,2022-02-06 03:46:14
175,Mogzon,51.7435,111.9606,9.99,84,100,7.61,RU,2022-02-06 03:46:15
176,Yar-Sale,66.8333,70.8333,-16.78,100,89,3.85,RU,2022-02-06 03:46:15
177,Pokhara,28.2333,83.9833,53.94,59,1,4.09,NP,2022-02-06 03:46:16
178,Corrente,-3.7367,-43.3394,71.89,99,90,3.13,BR,2022-02-06 03:46:16
179,Kirando,-7.4167,30.6,67.96,88,100,4.38,TZ,2022-02-06 03:46:16
180,Port Hardy,50.6996,-127.4199,44.78,81,100,9.22,CA,2022-02-06 03:46:17
181,Makakilo City,21.3469,-158.0858,79.12,62,75,5.75,US,2022-02-06 03:47:17
182,Chuy,-33.6971,-53.4616,62.02,93,17,7.85,UY,2022-02-06 03:46:37
183,Marsh Harbour,26.5412,-77.0636,73.04,69,42,10.02,BS,2022-02-06 03:43:41
184,Mehamn,71.0357,27.8492,22.84,86,82,19.62,NO,2022-02-06 03:47:18
185,Bengkulu,-3.8004,102.2655,75.33,91,100,12.15,ID,2022-02-06 03:47:18
186,Nouadhibou,20.931,-17.0347,64.38,94,20,13.8,MR,2022-02-06 03:47:19
187,Lima,-12.0432,-77.0282,67.39,39,0,6.91,PE,2022-02-06 03:42:52
188,Chake Chake,-5.2459,39.7666,78.48,85,100,5.19,TZ,2022-02-06 03:47:20
189,Payo,-3.7508,103.6372,78.48,83,100,4.54,ID,2022-02-06 03:47:20
190,Puerto Madero,14.7208,-92.4215,77.38,64,42,7.56,MX,2022-02-06 03:47:20
191,Tyukhtet,56.5389,89.3011,15.01,86,100,4.92,RU,2022-02-06 03:47:21
192,Sorong,-0.8833,131.25,84.61,69,100,11.92,ID,2022-02-06 03:47:21
193,Uzhur,55.3036,89.8339,9.25,89,96,4.88,RU,2022-02-06 03:47:21
194,Le Port,-20.9373,55.2919,80.6,78,100,15.1,RE,2022-02-06 03:47:22
195,Haines Junction,60.7522,-137.5108,26.55,86,100,2.3,CA,2022-02-06 03:47:22
196,Cotabato,7.2236,124.2464,91.38,45,63,11.21,PH,2022-02-06 03:47:23
197,North Bend,43.4065,-124.2243,46.31,96,0,0.0,US,2022-02-06 03:47:23
198,Humaita,-7.5061,-63.0208,72.12,97,100,1.34,BR,2022-02-06 03:47:23
199,Santa Maria,-29.6842,-53.8069,72.7,78,0,6.91,BR,2022-02-06 03:44:17
200,Dikson,73.5069,80.5464,-21.98,100,99,4.54,RU,2022-02-06 03:47:24
201,Gigmoto,13.7796,124.39,81.27,72,36,15.82,PH,2022-02-06 03:47:24
202,Bay Roberts,47.5999,-53.2648,43.52,91,100,5.01,CA,2022-02-06 03:43:22
203,Chimoio,-19.1164,33.4833,67.86,100,75,7.72,MZ,2022-02-06 03:47:25
204,Santarem,-2.4431,-54.7083,75.33,100,40,4.61,BR,2022-02-06 03:45:24
205,Saint George,37.1041,-113.5841,48.34,29,0,5.01,US,2022-02-06 03:47:26
206,Guerrero Negro,27.9769,-114.0611,60.62,57,0,12.33,MX,2022-02-06 03:47:01
207,Nanortalik,60.1432,-45.2371,9.81,59,100,13.47,GL,2022-02-06 03:47:26
208,Dicabisagan,17.0818,122.4157,74.12,88,100,8.7,PH,2022-02-06 03:47:27
209,Kenai,60.5544,-151.2583,28.45,89,100,16.11,US,2022-02-06 03:47:27
210,Rokytne,51.2796,27.214,31.35,87,91,12.5,UA,2022-02-06 03:47:28
211,Fortuna,40.5982,-124.1573,47.66,94,0,6.91,US,2022-02-06 03:47:28
212,Ribeira Grande,38.5167,-28.7,59.58,75,3,12.77,PT,2022-02-06 03:47:28
213,Wanning,18.8003,110.3967,71.08,75,96,10.78,CN,2022-02-06 03:47:29
214,Leshukonskoye,64.8989,45.7622,2.77,92,21,7.87,RU,2022-02-06 03:47:29
215,Asilah,35.465,-6.0348,55.36,80,0,6.04,MA,2022-02-06 03:47:30
216,Luanda,-8.8368,13.2343,75.2,83,75,5.75,AO,2022-02-06 03:47:30
217,Ulagan,50.6321,87.9563,3.49,71,23,2.64,RU,2022-02-06 03:47:30
218,Dubbo,-32.25,148.6167,77.13,44,75,17.27,AU,2022-02-06 03:47:31
219,Anadyr,64.75,177.4833,-5.3,71,0,2.24,RU,2022-02-06 03:47:31
220,Souillac,-20.5167,57.5167,81.36,83,75,12.66,MU,2022-02-06 03:47:32
221,Margate,51.3813,1.3862,50.97,78,100,11.99,GB,2022-02-06 03:47:32
222,Yumen,40.2833,97.2,17.26,60,100,18.97,CN,2022-02-06 03:47:33
223,Alihe,50.5667,123.7167,12.87,55,81,6.73,CN,2022-02-06 03:47:33
224,Sioux Lookout,50.1001,-91.917,7.18,85,100,6.91,CA,2022-02-06 03:47:33
225,Cravo Norte,6.3017,-70.2041,82.8,41,92,5.17,CO,2022-02-06 03:47:34
226,Chokurdakh,70.6333,147.9167,-32.3,100,100,2.51,RU,2022-02-06 03:47:34
227,Pierre,44.3683,-100.351,41.27,55,0,10.0,US,2022-02-06 03:47:35
228,Egvekinot,66.3167,-179.1667,-11.06,87,6,10.36,RU,2022-02-06 03:47:35
229,Lorengau,-2.0226,147.2712,83.79,72,100,9.31,PG,2022-02-06 03:43:01
230,Nantucket,41.2835,-70.0995,24.91,58,0,18.41,US,2022-02-06 03:48:36
231,Tuatapere,-46.1333,167.6833,57.81,48,25,7.99,NZ,2022-02-06 03:48:36
232,Hasaki,35.7333,140.8333,46.29,27,1,15.21,JP,2022-02-06 03:48:20
233,Porbandar,21.6422,69.6093,60.78,77,0,0.0,IN,2022-02-06 03:48:29
234,Upernavik,72.7868,-56.1549,-1.59,98,100,3.67,GL,2022-02-06 03:44:16
235,Sistranda,63.7256,8.834,37.9,69,100,28.05,NO,2022-02-06 03:48:37
236,Kaoma,-14.7833,24.8,63.75,99,100,3.65,ZM,2022-02-06 03:48:38
237,Chalmette,29.9427,-89.9634,46.4,62,0,3.44,US,2022-02-06 03:48:38
238,Solwezi,-12.1688,26.3894,58.73,98,100,3.22,ZM,2022-02-06 03:48:38
239,Mareeba,-17.0,145.4333,83.66,73,36,5.26,AU,2022-02-06 03:46:59
240,Husavik,66.0449,-17.3389,30.11,87,100,20.36,IS,2022-02-06 03:47:56
241,Castro,-24.7911,-50.0119,63.32,98,99,3.85,BR,2022-02-06 03:48:39
242,Kavieng,-2.5744,150.7967,83.64,74,100,8.43,PG,2022-02-06 03:48:40
243,Grand-Santi,4.25,-54.3833,72.36,100,100,1.92,GF,2022-02-06 03:48:40
244,New Norfolk,-42.7826,147.0587,76.66,33,0,3.0,AU,2022-02-06 03:48:41
245,General Roca,-39.0333,-67.5833,68.4,36,98,7.72,AR,2022-02-06 03:48:41
246,Lasa,46.6166,10.7002,35.06,40,6,3.29,IT,2022-02-06 03:46:52
247,Portland,45.5234,-122.6762,46.69,87,0,1.01,US,2022-02-06 03:46:08
248,Sao Joao Da Barra,-21.6403,-41.0511,76.24,86,1,20.0,BR,2022-02-06 03:48:42
249,Whitehorse,60.7161,-135.0538,28.02,94,100,17.0,CA,2022-02-06 03:48:11
250,Terre-De-Bas,15.8501,-61.6442,69.66,77,3,11.43,GP,2022-02-06 03:48:42
251,Kijang,35.2442,129.2139,37.13,38,100,13.6,KR,2022-02-06 03:48:43
252,Kodinsk,58.6881,99.1844,16.9,91,100,8.86,RU,2022-02-06 03:48:43
253,Aksarka,66.5606,67.7975,-21.91,100,73,3.6,RU,2022-02-06 03:48:44
254,Baudh,20.8416,84.3213,72.86,19,5,0.63,IN,2022-02-06 03:48:44
255,Suntar,62.1444,117.6319,7.14,92,97,5.28,RU,2022-02-06 03:48:44
256,Grindavik,63.8424,-22.4338,31.95,80,75,19.57,IS,2022-02-06 03:48:45
257,Kasane,-17.8167,25.15,66.29,100,0,9.22,BW,2022-02-06 03:48:45
258,Iwaki,37.05,140.8833,42.06,35,43,8.99,JP,2022-02-06 03:48:46
259,Mgandu,-5.95,34.1333,60.24,90,100,2.71,TZ,2022-02-06 03:48:46
260,Erzurum,40.0,41.5,8.28,98,97,4.88,TR,2022-02-06 03:48:47
261,Aklavik,68.2191,-135.0107,-30.17,85,80,3.38,CA,2022-02-06 03:48:47
262,Hofn,64.2539,-15.2082,31.46,69,100,19.8,IS,2022-02-06 03:44:09
263,Robertsport,6.7533,-11.3686,78.19,87,15,4.56,LR,2022-02-06 03:48:48
264,Leh,34.1667,77.5833,5.7,74,99,2.37,IN,2022-02-06 03:48:48
265,Talara,-4.5772,-81.2719,71.17,85,12,11.65,PE,2022-02-06 03:48:48
266,Palasa,18.7667,84.4167,74.86,48,67,5.86,IN,2022-02-06 03:48:49
267,Leningradskiy,69.3833,178.4167,-22.14,97,15,3.18,RU,2022-02-06 03:44:54
268,Malanje,-9.5402,16.341,60.8,98,85,2.84,AO,2022-02-06 03:48:49
269,Comodoro Rivadavia,-45.8667,-67.5,62.46,63,0,4.61,AR,2022-02-06 03:45:00
270,Chivilcoy,-34.8957,-60.0167,59.02,10,6,5.99,AR,2022-02-06 03:48:50
271,Victor Harbor,-35.5667,138.6167,90.81,45,76,12.37,AU,2022-02-06 03:48:50
272,Aykhal,66.0,111.5,-17.59,97,99,1.39,RU,2022-02-06 03:48:51
273,Tenali,16.2425,80.6398,73.49,70,21,7.38,IN,2022-02-06 03:48:51
274,Luang Prabang,19.8856,102.1347,67.96,77,100,0.0,LA,2022-02-06 03:48:52
275,Cedar City,37.6775,-113.0619,29.17,43,0,8.05,US,2022-02-06 03:48:52
276,Ponta Do Sol,32.6667,-17.1,66.13,53,56,12.95,PT,2022-02-06 03:48:52
277,Clyde River,70.4692,-68.5914,-30.77,68,100,5.75,CA,2022-02-06 03:48:53
278,Bereda,43.2686,-7.5406,36.41,97,67,0.63,ES,2022-02-06 03:49:53
279,Vila,42.0304,-8.1588,35.33,82,15,4.14,PT,2022-02-06 03:49:54
280,Harper,4.375,-7.7169,77.45,88,34,4.88,LR,2022-02-06 03:48:52
281,Touros,-5.1989,-35.4608,77.9,72,35,9.4,BR,2022-02-06 03:49:54
282,Araouane,18.9048,-3.5265,60.75,13,0,8.32,ML,2022-02-06 03:49:55
283,Churhat,24.428,81.6703,61.29,43,3,5.61,IN,2022-02-06 03:49:55
284,Sao Bento Do Sul,-26.2503,-49.3786,70.23,94,100,2.62,BR,2022-02-06 03:49:55
285,Gat,31.61,34.7642,52.39,100,70,6.22,IL,2022-02-06 03:46:10
286,Tasiilaq,65.6145,-37.6368,14.16,58,96,6.76,GL,2022-02-06 03:49:56
287,Road Town,18.4167,-64.6167,72.0,79,92,21.81,VG,2022-02-06 03:46:03
288,Pozoblanco,38.3791,-4.8483,36.18,80,17,2.59,ES,2022-02-06 03:49:57
289,Yeppoon,-23.1333,150.7333,83.98,55,20,21.68,AU,2022-02-06 03:49:57
290,Ewo,-0.8725,14.8206,73.56,70,30,0.96,CG,2022-02-06 03:49:58
291,Necochea,-38.5473,-58.7368,60.04,72,100,20.13,AR,2022-02-06 03:49:58
292,Jubasan,12.4844,124.2872,82.17,71,32,19.84,PH,2022-02-06 03:49:58
293,Santa Catarina De Tepehuanes,25.35,-105.7333,45.5,55,8,5.61,MX,2022-02-06 03:49:59
294,Channel-Port Aux Basques,47.5702,-59.1367,19.15,84,82,32.48,CA,2022-02-06 03:49:59
295,Pontianak,-0.0333,109.3333,85.98,74,40,3.44,ID,2022-02-06 03:50:00
296,Den Helder,52.9599,4.7593,48.18,92,100,31.0,NL,2022-02-06 03:50:00
297,Ust-Kulom,61.6864,53.6902,3.79,95,35,5.57,RU,2022-02-06 03:50:01
298,Kaeo,-35.1,173.7833,75.33,94,100,3.29,NZ,2022-02-06 03:50:01
299,Prokopyevsk,53.9059,86.719,12.54,91,82,1.74,RU,2022-02-06 03:50:02
300,Japura,-0.3167,102.35,79.95,85,99,5.46,ID,2022-02-06 03:50:02
301,Pangai,-19.8,-174.35,80.71,74,75,13.8,TO,2022-02-06 03:50:02
302,Asfi,32.2994,-9.2372,55.9,82,37,16.22,MA,2022-02-06 03:50:03
303,Bobrovka,54.047,61.7455,12.69,92,100,4.97,RU,2022-02-06 03:50:03
304,Uva,56.9908,52.1852,22.46,96,98,5.03,RU,2022-02-06 03:50:04
305,Fairbanks,64.8378,-147.7164,9.61,82,100,4.61,US,2022-02-06 03:49:11
306,Victoria,22.2855,114.1577,65.97,76,99,3.0,HK,2022-02-06 03:46:17
307,Parrita,9.5201,-84.3225,80.37,71,6,3.67,CR,2022-02-06 03:50:05
308,Wewak,-3.5534,143.6268,86.27,69,100,15.88,PG,2022-02-06 03:45:32
309,Kieta,-6.2167,155.6333,86.7,68,41,10.47,PG,2022-02-06 03:50:05
310,Sault Sainte Marie,46.5168,-84.3333,19.69,82,100,10.36,CA,2022-02-06 03:50:06
311,Aanekoski,62.6946,25.818,26.67,98,41,5.93,FI,2022-02-06 03:50:06
312,Langcangan,8.4794,123.7558,82.63,68,81,7.43,PH,2022-02-06 03:50:07
313,Mercedes,-34.6515,-59.4307,61.84,94,5,8.77,AR,2022-02-06 03:50:07
314,Kruisfontein,-34.0033,24.7314,65.88,95,22,8.12,ZA,2022-02-06 03:48:30
315,Malakal,9.5334,31.6605,66.34,17,11,10.94,SS,2022-02-06 03:50:08
316,Saldanha,-33.0117,17.9442,60.85,76,64,6.15,ZA,2022-02-06 03:50:09
317,Pevek,69.7008,170.3133,-26.99,99,28,2.48,RU,2022-02-06 03:50:09
318,Siaya,0.0612,34.2882,63.61,83,100,5.66,KE,2022-02-06 03:50:10
319,Thompson,55.7435,-97.8558,-27.24,68,40,0.0,CA,2022-02-06 03:45:21
320,Vanimo,-2.6741,141.3028,84.79,71,100,8.48,PG,2022-02-06 03:50:10
321,Hanstholm,57.1167,8.6167,37.74,72,81,21.36,DK,2022-02-06 03:50:11
322,Matay,28.419,30.7792,47.84,76,0,5.14,EG,2022-02-06 03:47:51
323,Faya,18.3851,42.4509,48.72,74,0,3.44,SA,2022-02-06 03:51:11
324,Moron,-34.6534,-58.6198,62.35,83,29,9.84,AR,2022-02-06 03:51:12
325,Dasoguz,41.8363,59.9666,35.71,93,100,20.71,TM,2022-02-06 03:48:49
326,Mount Isa,-20.7333,139.5,89.37,33,100,8.05,AU,2022-02-06 03:51:12
327,Shumskiy,54.8318,99.1328,27.52,66,100,7.74,RU,2022-02-06 03:51:13
328,Poum,-20.2333,164.0167,78.85,91,100,13.71,NC,2022-02-06 03:51:13
329,Salinas,36.6777,-121.6555,56.35,54,0,5.75,US,2022-02-06 03:46:48
330,Kahului,20.8947,-156.47,78.82,71,0,16.11,US,2022-02-06 03:47:11
331,Treinta Y Tres,-33.2333,-54.3833,61.45,88,0,8.12,UY,2022-02-06 03:51:14
332,Inverness,57.4791,-4.224,36.99,92,20,5.99,GB,2022-02-06 03:51:14
333,Rabo De Peixe,37.8,-25.5833,59.27,92,20,18.41,PT,2022-02-06 03:51:15
334,Namibe,-15.1961,12.1522,71.56,68,92,8.05,AO,2022-02-06 03:51:15
335,Bonthe,7.5264,-12.505,74.7,87,32,0.96,SL,2022-02-06 03:51:16
336,Sembe,1.6481,14.5806,67.33,30,87,1.79,CG,2022-02-06 03:51:16
337,Tortoli,39.9256,9.6572,49.82,50,40,11.5,IT,2022-02-06 03:51:17
338,Tsiroanomandidy,-18.7667,46.0333,67.53,95,100,7.83,MG,2022-02-06 03:51:17
339,Santa Clara,22.4,-79.9667,65.17,86,0,5.48,CU,2022-02-06 03:51:18
340,Prainha,-1.8,-53.48,73.35,98,100,2.66,BR,2022-02-06 03:51:18
341,Mahibadhoo,3.7833,72.9667,81.43,68,38,8.68,MV,2022-02-06 03:51:18
342,Srednekolymsk,67.45,153.6833,-27.94,96,18,0.72,RU,2022-02-06 03:51:19
343,Bandarbeyla,9.4942,50.8122,74.82,72,8,6.62,SO,2022-02-06 03:50:14
344,Denpasar,-8.65,115.2167,85.71,74,20,8.05,ID,2022-02-06 03:48:13
345,Pangnirtung,66.1451,-65.7125,-33.95,93,100,6.17,CA,2022-02-06 03:51:19
346,Manado,1.487,124.8455,88.57,66,40,6.91,ID,2022-02-06 03:51:20
347,Bemidji,47.4736,-94.8803,12.9,89,100,0.0,US,2022-02-06 03:51:20
348,San Jeronimo,-11.9472,-75.2829,50.58,91,100,3.74,PE,2022-02-06 03:51:21
349,Celestun,20.8667,-90.4,71.73,77,81,16.2,MX,2022-02-06 03:51:21
350,Gambela,8.25,34.5833,73.69,34,37,0.96,ET,2022-02-06 03:51:22
351,Presidencia Roque Saenz Pena,-26.7852,-60.4388,73.35,47,2,9.86,AR,2022-02-06 03:51:22
352,Billund,55.7335,9.1078,40.77,93,100,20.71,DK,2022-02-06 03:51:22
353,Asyut,27.181,31.1837,42.98,68,0,5.95,EG,2022-02-06 03:51:23
354,Rudbar,30.15,62.6,54.54,46,10,10.85,AF,2022-02-06 03:51:23
355,Dickson,36.077,-87.3878,29.05,77,0,0.0,US,2022-02-06 03:51:24
356,Zhuhai,22.2769,113.5678,65.71,72,20,12.66,CN,2022-02-06 03:51:24
357,Podgorenskiy,50.405,39.6429,16.66,96,100,7.0,RU,2022-02-06 03:51:24
358,Gangapur,26.4833,76.7167,58.73,48,0,3.31,IN,2022-02-06 03:51:25
359,Jumla,29.2747,82.1838,45.54,24,0,2.71,NP,2022-02-06 03:51:25
360,Qingdao,36.0986,120.3719,35.2,35,0,8.95,CN,2022-02-06 03:51:26
361,Uyskoye,54.3775,60.0047,8.4,97,100,2.82,RU,2022-02-06 03:51:26
362,Yerbogachen,61.2767,108.0108,13.53,92,100,4.07,RU,2022-02-06 03:51:26
363,Chapleau,47.8405,-83.4034,9.9,94,100,9.15,CA,2022-02-06 03:51:27
364,Kununurra,-15.7667,128.7333,85.98,74,50,5.75,AU,2022-02-06 03:51:27
365,Sabang,5.8933,95.3214,82.2,74,80,13.33,ID,2022-02-06 03:51:28
366,Sambava,-14.2667,50.1667,76.1,82,73,3.76,MG,2022-02-06 03:51:28
367,Villazon,-22.0866,-65.5942,48.52,69,41,10.36,BO,2022-02-06 03:51:29
368,Atar,20.5169,-13.0499,67.71,11,0,5.03,MR,2022-02-06 03:52:29
369,Kattivakkam,13.2167,80.3167,84.29,77,99,8.37,IN,2022-02-06 03:52:29
370,Diplo,24.4667,69.584,68.16,63,13,6.89,PK,2022-02-06 03:52:30
371,Elizabeth City,36.2946,-76.2511,34.02,67,0,14.97,US,2022-02-06 03:52:30
372,Mersing,2.4312,103.8405,84.11,74,40,10.36,MY,2022-02-06 03:52:31
373,Abinsk,44.8726,38.1611,42.96,84,100,15.37,RU,2022-02-06 03:52:31
374,Charters Towers,-20.1,146.2667,87.22,34,0,9.15,AU,2022-02-06 03:48:42
375,Ta Khmau,11.4833,104.95,84.25,54,40,9.22,KH,2022-02-06 03:52:32
376,Seydi,39.4816,62.9137,43.21,71,100,20.24,TM,2022-02-06 03:52:33
377,Delta Del Tigre,-34.7633,-56.3853,66.2,85,93,11.01,UY,2022-02-06 03:52:33
378,Chicama,-7.8447,-79.1469,66.74,80,58,4.94,PE,2022-02-06 03:52:34
379,Gornopravdinsk,60.05,69.9,14.9,97,100,2.89,RU,2022-02-06 03:52:34
380,Port Blair,11.6667,92.75,86.04,66,40,9.22,IN,2022-02-06 03:51:22
381,Pineville,31.3224,-92.4343,34.09,77,0,0.0,US,2022-02-06 03:52:30
382,Honolulu,21.3069,-157.8583,80.42,71,40,1.99,US,2022-02-06 03:51:17
383,Valladolid,41.5833,-4.6667,32.29,85,3,5.26,ES,2022-02-06 03:52:35
384,Fandriana,-20.2333,47.3833,64.49,89,100,17.18,MG,2022-02-06 03:52:35
385,Saint Pete Beach,27.7253,-82.7412,58.28,83,100,5.01,US,2022-02-06 03:52:36
386,Odweyne,9.4092,45.064,62.2,47,95,10.42,SO,2022-02-06 03:52:36
387,Moirang,24.5,93.7667,55.45,46,3,5.1,IN,2022-02-06 03:52:37
388,La Ronge,55.1001,-105.2842,-3.75,71,100,2.3,CA,2022-02-06 03:52:37
389,Cascais,38.6979,-9.4215,52.95,64,0,1.01,PT,2022-02-06 03:52:37
390,Hamina,60.5697,27.1979,25.88,100,58,6.31,FI,2022-02-06 03:52:38
391,Kalmunai,7.4167,81.8167,80.67,61,98,8.01,LK,2022-02-06 03:52:38
392,Hay River,60.8156,-115.7999,-11.24,84,40,4.61,CA,2022-02-06 03:52:39
393,Ahipara,-35.1667,173.1667,73.51,91,100,3.42,NZ,2022-02-06 03:52:39
394,Guilin,25.2819,110.2864,42.91,74,100,4.56,CN,2022-02-06 03:49:36
395,Havre-Saint-Pierre,50.2334,-63.5986,3.79,55,0,12.66,CA,2022-02-06 03:51:37
396,Tashtyp,52.7939,89.8983,12.58,75,79,0.96,RU,2022-02-06 03:52:40
397,Teguldet,57.3064,88.1667,14.09,89,100,5.37,RU,2022-02-06 03:52:40
398,Tomatlan,19.9333,-105.25,66.76,88,92,1.16,MX,2022-02-06 03:49:46
399,Beoumi,7.6736,-5.5764,68.47,28,5,3.31,CI,2022-02-06 03:52:41
400,The Valley,18.217,-63.0578,77.09,74,83,21.52,AI,2022-02-06 03:48:29
401,Itarema,-2.9248,-39.9167,77.25,89,7,8.68,BR,2022-02-06 03:47:42
402,Vostok,46.4856,135.8833,2.3,85,100,5.73,RU,2022-02-06 03:52:42
403,Ust-Nera,64.5667,143.2,-11.16,77,48,2.01,RU,2022-02-06 03:52:42
404,Kaitangata,-46.2817,169.8464,54.93,58,34,7.54,NZ,2022-02-06 03:52:42
405,Ambilobe,-13.2,49.05,74.34,91,99,2.98,MG,2022-02-06 03:52:43
406,Itaituba,-4.2761,-55.9836,73.38,99,100,0.56,BR,2022-02-06 03:52:43
407,Fort Nelson,58.8053,-122.7002,17.65,97,100,2.3,CA,2022-02-06 03:52:44
408,Mayo,38.8876,-76.5119,28.35,59,0,4.0,US,2022-02-06 03:52:44
409,Klaksvik,62.2266,-6.589,32.92,74,100,18.28,FO,2022-02-06 03:49:08
410,Tshikapa,-6.4167,20.8,67.95,97,64,1.43,CD,2022-02-06 03:53:45
411,Morehead,37.2711,-87.1764,20.95,93,0,0.0,US,2022-02-06 03:53:46
412,Quelimane,-17.8786,36.8883,75.15,94,75,8.05,MZ,2022-02-06 03:53:46
413,Bundaberg,-24.85,152.35,82.22,55,75,1.99,AU,2022-02-06 03:49:28
414,Bilma,18.6853,12.9164,54.61,22,0,8.37,NE,2022-02-06 03:53:47
415,Emerald,-23.5333,148.1667,87.94,30,40,12.66,AU,2022-02-06 03:53:47
416,Srivardhan,18.0333,73.0167,73.99,56,62,0.83,IN,2022-02-06 03:53:47
417,Viedma,-40.8135,-62.9967,54.79,68,0,6.2,AR,2022-02-06 03:53:48
418,Pakxe,15.1167,105.7833,77.14,57,20,2.3,LA,2022-02-06 03:53:48
419,Bontang,0.1333,117.5,84.56,67,100,11.16,ID,2022-02-06 03:53:49
420,Marechal Candido Rondon,-24.5561,-54.0567,72.25,96,98,1.92,BR,2022-02-06 03:53:49
421,Juneau,58.3019,-134.4197,37.85,99,100,11.01,US,2022-02-06 03:53:49
422,Noumea,-22.2763,166.4572,89.58,81,58,9.06,NC,2022-02-06 03:53:27
423,Valdosta,30.8327,-83.2785,47.79,81,0,3.44,US,2022-02-06 03:53:50
424,Emba,48.8264,58.1442,18.48,97,100,1.03,KZ,2022-02-06 03:53:50
425,Christchurch,-43.5333,172.6333,62.01,67,100,3.44,NZ,2022-02-06 03:51:47
426,Amapa,1.0,-52.0,71.06,100,100,1.5,BR,2022-02-06 03:53:51
427,Athabasca,54.7169,-113.2854,35.29,92,74,5.1,CA,2022-02-06 03:53:51
428,Vestmannaeyjar,63.4427,-20.2734,27.14,76,85,21.5,IS,2022-02-06 03:53:52
429,San Alberto,7.7611,-73.3922,73.78,89,25,3.09,CO,2022-02-06 03:53:52
430,Mildura,-34.2,142.15,87.08,24,40,10.36,AU,2022-02-06 03:53:52
431,Quang Ngai,15.1167,108.8,73.31,85,69,8.25,VN,2022-02-06 03:53:53
432,Mendi,-6.1761,143.6513,69.08,64,100,6.24,PG,2022-02-06 03:53:53
433,Price,39.5994,-110.8107,29.12,66,23,8.63,US,2022-02-06 03:53:54
434,Kuusamo,65.9667,29.1833,17.64,93,100,10.36,FI,2022-02-06 03:53:54
435,Erzin,36.9559,36.2,37.92,80,6,3.65,TR,2022-02-06 03:53:54
436,Galesong,-5.3166,119.3661,86.02,70,93,7.78,ID,2022-02-06 03:53:55
437,Aljezur,37.3191,-8.8033,48.33,81,1,8.5,PT,2022-02-06 03:53:55
438,Belaya Gora,68.5333,146.4167,-35.07,99,86,0.94,RU,2022-02-06 03:53:56
439,Marfino,55.7028,37.3822,15.94,85,75,6.71,RU,2022-02-06 03:53:56
440,Nome,64.5011,-165.4064,-16.19,92,4,8.32,US,2022-02-06 03:53:56
441,Talnakh,69.4865,88.3972,-17.23,99,100,2.28,RU,2022-02-06 03:53:57
442,Nanga Eboko,4.6833,12.3667,60.06,40,70,0.25,CM,2022-02-06 03:53:57
443,Olean,42.0776,-78.4297,8.94,61,0,0.0,US,2022-02-06 03:53:58
444,Ancud,-41.8697,-73.8203,55.42,88,85,2.89,CL,2022-02-06 03:53:58
445,Sandpoint,48.2766,-116.5533,37.74,87,0,1.01,US,2022-02-06 03:49:03
446,Ulladulla,-35.35,150.4667,73.87,60,47,13.6,AU,2022-02-06 03:53:59
447,Port-Gentil,-0.7193,8.7815,78.73,82,16,9.64,GA,2022-02-06 03:53:59
448,Utete,-7.986,38.758,73.87,85,100,3.44,TZ,2022-02-06 03:54:00
449,Najran,17.4924,44.1277,56.05,58,0,4.85,SA,2022-02-06 03:54:00
450,Skjervoy,70.0311,20.9714,30.79,69,99,20.27,NO,2022-02-06 03:54:01
451,Omsukchan,62.5333,155.8,-10.23,75,30,3.44,RU,2022-02-06 03:54:01
452,Aksha,50.2814,113.2867,16.0,71,24,5.86,RU,2022-02-06 03:54:01
453,Lyantonde,-0.4031,31.1572,63.21,80,100,2.01,UG,2022-02-06 03:54:02
454,Grover Beach,35.1216,-120.6213,57.76,47,0,4.61,US,2022-02-06 03:54:02
455,Chopinzinho,-25.8558,-52.5233,64.96,98,100,0.87,BR,2022-02-06 03:54:03
456,Hobyo,5.3505,48.5268,75.9,70,15,13.27,SO,2022-02-06 03:54:03
457,Ust-Maya,60.4167,134.5333,-16.26,91,100,1.83,RU,2022-02-06 03:55:03
458,Ilulissat,69.2167,-51.1,-11.11,83,100,7.78,GL,2022-02-06 03:55:04
459,Chapais,49.7834,-74.8492,-24.02,100,39,2.48,CA,2022-02-06 03:55:04
460,Constitucion,-35.3333,-72.4167,61.88,64,0,8.21,CL,2022-02-06 03:53:17
461,Shizuishan,39.2333,106.7694,23.34,23,100,5.44,CN,2022-02-06 03:55:05
462,Yulara,-25.2406,130.9889,87.64,18,0,6.91,AU,2022-02-06 03:55:05
463,Meulaboh,4.1363,96.1285,83.59,65,93,4.99,ID,2022-02-06 03:55:06
464,Edd,13.9297,41.6925,75.6,76,97,16.91,ER,2022-02-06 03:55:06
465,Asau,46.4333,26.4,30.4,91,30,7.02,RO,2022-02-06 03:55:06
466,Kushima,31.4583,131.2333,48.24,44,67,13.18,JP,2022-02-06 03:55:07
467,Bilibino,68.0546,166.4372,-14.1,83,23,4.5,RU,2022-02-06 03:55:07
468,Mahebourg,-20.4081,57.7,82.26,83,75,12.66,MU,2022-02-06 03:55:08
469,Sunrise Manor,36.2111,-115.0731,58.87,18,20,3.44,US,2022-02-06 03:55:08
470,Zambezi,-13.5432,23.1047,63.75,96,100,3.09,ZM,2022-02-06 03:55:08
471,Richards Bay,-28.783,32.0377,71.87,87,78,6.08,ZA,2022-02-06 03:55:09
472,San Jose,37.3394,-121.895,57.78,59,20,0.0,US,2022-02-06 03:52:27
473,Nizhniy Tsasuchey,50.5167,115.1333,10.78,76,5,6.85,RU,2022-02-06 03:55:09
474,Airai,-8.9266,125.4092,73.15,68,64,3.2,TL,2022-02-06 03:55:10
475,Fonte Boa,-2.4959,-66.2662,72.25,99,100,0.31,BR,2022-02-06 03:55:10
476,Urucara,-2.5364,-57.76,73.11,99,92,0.36,BR,2022-02-06 03:55:11
477,Lumeje,-11.55,20.7833,62.96,84,100,5.28,AO,2022-02-06 03:55:11
478,Madimba,-10.4,40.3333,75.45,86,100,9.64,TZ,2022-02-06 03:55:11
479,Mackenzie,55.2999,-123.1698,37.62,70,100,11.5,CA,2022-02-06 03:55:12
480,Ostrovnoy,68.0531,39.5131,14.07,83,100,28.32,RU,2022-02-06 03:55:12
481,Harrison,30.4091,-89.0436,33.15,90,0,7.61,US,2022-02-06 03:55:12
482,Mayumba,-3.432,10.6554,76.17,89,94,5.57,GA,2022-02-06 03:55:13
483,Kedougou,12.5579,-12.1743,75.78,27,0,0.0,SN,2022-02-06 03:55:13
484,Itoman,26.1247,127.6694,63.37,55,40,18.41,JP,2022-02-06 03:55:14
485,Sorland,67.667,12.6934,38.37,66,82,17.02,NO,2022-02-06 03:55:14
486,Rawlins,41.7911,-107.2387,28.62,74,98,12.08,US,2022-02-06 03:55:15
487,Freeport,40.6576,-73.5832,22.01,64,0,1.99,US,2022-02-06 03:50:34
488,Iqaluit,63.7506,-68.5145,-33.07,68,40,3.44,CA,2022-02-06 03:55:15
489,Lappeenranta,61.0587,28.1887,26.65,93,100,4.61,FI,2022-02-06 03:55:16
490,Moose Factory,51.2585,-80.6094,-18.42,69,0,3.44,CA,2022-02-06 03:55:16
491,Udachnyy,66.4167,112.4,-15.56,82,93,1.43,RU,2022-02-06 03:55:16
492,Penzance,50.1186,-5.5371,52.81,88,100,38.3,GB,2022-02-06 03:55:17
493,Okha,53.5739,142.9478,3.85,87,100,20.07,RU,2022-02-06 03:55:17
494,Shu,43.5983,73.7614,35.22,37,99,3.33,KZ,2022-02-06 03:55:18
495,San Juan De Uraba,8.7592,-76.5297,78.64,77,100,10.89,CO,2022-02-06 03:55:18
496,Shimoda,34.6667,138.95,46.76,44,22,27.31,JP,2022-02-06 03:55:18
497,Wattegama,6.7989,81.4808,79.72,57,96,8.21,LK,2022-02-06 03:55:19
498,Zhigansk,66.7697,123.3711,-22.16,97,100,5.61,RU,2022-02-06 03:55:19
499,Chirongui,-12.9319,45.1483,80.53,72,80,12.39,YT,2022-02-06 03:55:20
500,Mitsamiouli,-11.3847,43.2844,77.29,88,20,5.75,KM,2022-02-06 03:55:20
501,Kyrylivka,46.3759,35.3675,35.46,99,100,16.13,UA,2022-02-06 03:55:20
502,Murud,18.3258,72.965,73.96,52,41,0.6,IN,2022-02-06 03:55:21
503,Milos,36.75,24.4333,55.69,64,22,10.42,GR,2022-02-06 03:55:21
504,Nakatunguru,-2.1167,33.0667,66.24,72,98,4.56,TZ,2022-02-06 03:55:22
505,Gao,16.6362,1.637,57.51,18,0,11.41,ML,2022-02-06 03:56:22
506,Mozirje,46.3394,14.9633,37.09,70,78,2.71,SI,2022-02-06 03:56:23
507,Baryatino,54.3121,34.521,27.45,95,98,10.49,RU,2022-02-06 03:56:23
508,Luba,3.4568,8.5547,78.93,83,6,6.06,GQ,2022-02-06 03:56:23
509,San Vicente,-26.6167,-54.1333,63.63,97,57,1.21,AR,2022-02-06 03:56:24
510,Cockburn Town,21.4612,-71.1419,76.08,67,0,17.54,TC,2022-02-06 03:56:24
511,Mulanje,-16.0316,35.5,65.59,96,6,3.67,MW,2022-02-06 03:56:25
512,Medina Del Campo,41.3124,-4.9141,29.71,83,1,3.8,ES,2022-02-06 03:56:25
513,Katsuura,35.1333,140.3,42.91,29,43,7.16,JP,2022-02-06 03:56:25
514,Lagoa,39.05,-27.9833,58.62,76,3,15.82,PT,2022-02-06 03:56:26
515,Jaru,-10.4389,-62.4664,71.71,97,66,1.66,BR,2022-02-06 03:56:26
516,Karratha,-20.7377,116.8463,93.36,50,49,16.37,AU,2022-02-06 03:53:16
517,Asosa,10.0667,34.5333,57.04,35,6,6.51,ET,2022-02-06 03:56:27
518,Vulcan,45.3833,23.2667,22.69,91,25,4.36,RO,2022-02-06 03:56:27
519,Ponta Delgada,37.7333,-25.6667,60.49,88,20,18.41,PT,2022-02-06 03:54:38
520,Manokwari,-0.8667,134.0833,83.43,69,100,6.42,ID,2022-02-06 03:56:28
521,Codrington,-38.2667,141.9667,76.87,46,46,19.24,AU,2022-02-06 03:54:09
522,Riyadh,24.6877,46.7219,46.54,39,0,8.28,SA,2022-02-06 03:53:19
523,Pringsewu,-5.3582,104.9744,75.63,93,100,1.77,ID,2022-02-06 03:56:29
524,Acarau,-2.8856,-40.12,77.47,88,4,9.33,BR,2022-02-06 03:56:29
525,Kalvarija,54.4,23.2333,32.76,90,92,14.9,LT,2022-02-06 03:56:29
526,San Fernando,15.0286,120.6898,86.14,53,93,19.1,PH,2022-02-06 03:56:30
527,Sidi Ali,36.0998,0.4206,53.31,77,98,2.59,DZ,2022-02-06 03:56:30
528,San Policarpo,12.1791,125.5072,82.44,70,92,18.99,PH,2022-02-06 03:56:31
529,Garissa,-0.4536,39.6401,75.29,79,100,4.32,KE,2022-02-06 03:56:31
530,Kindu,-2.95,25.95,66.13,99,79,2.3,CD,2022-02-06 03:56:31
531,Fare,-16.7,-151.0167,81.41,74,37,19.06,PF,2022-02-06 03:56:22
532,Roald,62.5833,6.1333,37.0,87,20,26.46,NO,2022-02-06 03:56:32
533,Joacaba,-27.1781,-51.5047,67.32,99,100,1.5,BR,2022-02-06 03:51:49
534,Banjar,-8.19,114.9675,85.91,67,12,4.99,ID,2022-02-06 03:56:33
535,Khandyga,62.6667,135.6,-26.07,93,96,2.06,RU,2022-02-06 03:56:33
536,Mangrol,21.1167,70.1167,67.62,66,1,5.37,IN,2022-02-06 03:56:33
537,Palmer,42.1584,-72.3287,16.14,95,7,1.81,US,2022-02-06 03:53:36
538,Padang,-0.9492,100.3543,84.25,81,100,0.96,ID,2022-02-06 03:56:34
539,Totoral,-17.4053,-70.365,61.61,68,65,2.24,PE,2022-02-06 03:56:34
540,Kupang,-10.1667,123.5833,84.52,72,77,14.34,ID,2022-02-06 03:56:35
541,Poroshkovo,48.6683,22.7533,26.35,99,100,3.71,UA,2022-02-06 03:56:35
542,Praia Da Vitoria,38.7333,-27.0667,57.45,94,75,15.03,PT,2022-02-06 03:56:35
543,Saint-Pierre,-21.3393,55.4781,82.08,65,0,8.05,RE,2022-02-06 03:56:36
544,Kontagora,10.3999,5.4695,68.16,21,0,7.14,NG,2022-02-06 03:56:36
545,Nawa,27.0167,75.0,58.08,43,0,10.36,IN,2022-02-06 03:56:37
546,Luena,-11.7833,19.9167,57.83,94,100,4.63,AO,2022-02-06 03:56:37
547,Tucurui,-3.7661,-49.6725,73.2,97,100,2.95,BR,2022-02-06 03:56:38
548,Tautira,-17.7333,-149.15,84.22,74,49,19.28,PF,2022-02-06 03:56:38
549,Alizai,33.5383,70.3462,47.44,55,50,0.49,PK,2022-02-06 03:56:38
550,Plerin,48.5425,-2.7798,51.57,85,100,11.01,FR,2022-02-06 03:56:39
551,Morondava,-20.2833,44.2833,77.85,85,100,15.14,MG,2022-02-06 03:56:39
552,Port Lincoln,-34.7333,135.8667,78.98,45,6,19.19,AU,2022-02-06 03:56:40
553,Qaqortoq,60.7167,-46.0333,0.28,71,100,4.99,GL,2022-02-06 03:57:40
554,Tadine,-21.55,167.8833,84.09,76,37,12.86,NC,2022-02-06 03:57:40
555,Angoche,-16.2325,39.9086,73.11,89,42,11.81,MZ,2022-02-06 03:57:41
556,Rio Grande,-32.035,-52.0986,69.94,77,1,14.03,BR,2022-02-06 03:57:03
557,Lichinga,-13.3128,35.2406,64.49,94,100,4.61,MZ,2022-02-06 03:57:41
558,Serenje,-13.2325,30.2352,59.14,98,100,3.09,ZM,2022-02-06 03:57:42
559,Santa Cruz Cabralia,-16.2781,-39.0247,73.63,94,75,5.75,BR,2022-02-06 03:57:42
560,Svetlogorsk,52.6333,29.7333,30.79,90,97,12.35,BY,2022-02-06 03:57:43
561,Antofagasta,-23.65,-70.4,63.68,76,25,3.24,CL,2022-02-06 03:54:35
562,Paamiut,61.994,-49.6678,-0.94,85,100,8.21,GL,2022-02-06 03:57:43
563,Benghazi,32.1167,20.0667,59.22,69,13,7.36,LY,2022-02-06 03:54:31
564,Estacion Coahuila,32.1939,-115.0017,56.97,17,5,8.21,MX,2022-02-06 03:57:44
565,Sao Miguel Do Araguaia,-13.275,-50.1628,73.99,91,100,3.71,BR,2022-02-06 03:57:44
566,Champerico,14.3,-91.9167,79.03,65,20,4.9,GT,2022-02-06 03:57:45
567,Pisco,-13.7,-76.2167,68.05,88,0,4.61,PE,2022-02-06 03:57:45
568,Erdenet,49.0333,104.0833,7.0,74,20,4.59,MN,2022-02-06 03:57:45
569,Vista Hermosa,19.5167,-99.2167,60.4,63,97,4.99,MX,2022-02-06 03:57:46
570,Solton,52.8429,86.4787,8.42,92,86,1.25,RU,2022-02-06 03:57:46
571,Krasnyy Chikoy,50.3643,108.7512,12.83,89,100,2.89,RU,2022-02-06 03:57:47
572,Nuuk,64.1835,-51.7216,-4.23,85,100,7.07,GL,2022-02-06 03:57:47
573,Zaliztsi,49.7919,25.373,25.59,89,94,11.12,UA,2022-02-06 03:57:47
574,Kavaratti,10.5669,72.642,78.15,61,9,5.61,IN,2022-02-06 03:57:48
575,Port Hedland,-20.3167,118.5667,91.45,66,73,14.97,AU,2022-02-06 03:57:48
576,Heidenreichstein,48.8667,15.1167,35.46,74,85,8.99,AT,2022-02-06 03:57:49
577,Ust-Shonosha,61.1531,41.343,8.42,97,98,4.63,RU,2022-02-06 03:57:49
578,Isla Vista,34.4133,-119.861,59.68,41,27,5.23,US,2022-02-06 03:57:49
579,Tecolutla,20.4833,-97.0167,53.58,72,40,4.7,MX,2022-02-06 03:57:50
580,Kourou,5.1552,-52.6478,80.11,92,100,5.97,GF,2022-02-06 03:57:50
581,Qeshm,26.9581,56.2719,62.49,67,0,12.64,IR,2022-02-06 03:57:51
582,Yatou,37.15,122.3833,34.93,39,100,11.54,CN,2022-02-06 03:57:51
583,Halifax,44.6453,-63.5724,15.8,82,41,8.01,CA,2022-02-06 03:56:52
584,Norman Wells,65.282,-126.8329,-21.96,69,20,3.44,CA,2022-02-06 03:57:51
585,Impfondo,1.6381,18.0667,67.41,29,90,1.59,CG,2022-02-06 03:57:52
586,Shaunavon,49.6501,-108.4181,29.98,92,90,13.15,CA,2022-02-06 03:57:52
587,Nemuro,43.3236,145.575,27.03,64,99,23.29,JP,2022-02-06 03:57:53
588,Barretos,-20.5572,-48.5678,70.66,95,100,4.29,BR,2022-02-06 03:57:53
589,Buraydah,26.326,43.975,43.25,55,0,5.79,SA,2022-02-06 03:57:53
590,Stykkisholmur,65.0757,-22.7297,27.52,76,98,28.92,IS,2022-02-06 03:57:54
591,Castelo Branco,39.8222,-7.4909,34.12,63,0,5.14,PT,2022-02-06 03:57:54
592,Jinchang,38.4953,102.1739,16.21,84,100,7.87,CN,2022-02-06 03:57:55
593,Yarim,14.298,44.3779,51.01,53,40,4.74,YE,2022-02-06 03:57:55
